FMT, 128, 89, FMT, BBnNZ, Type,Length,Name,Format,Columns
FMT, 129, 31, PARM, QNf, TimeUS,Name,Value
FMT, 130, 50, GPS, QBIHBcLLeeEefB, TimeUS,Status,GMS,GWk,NSats,HDop,Lat,Lng,RAlt,Alt,Spd,GCrs,VZ,U
FMT, 132, 49, IMU, QffffffIIfBB, TimeUS,GyrX,GyrY,GyrZ,AccX,AccY,AccZ,ErrG,ErrA,Temp,GyHlt,AcHlt
FMT, 133, 75, MSG, QZ, TimeUS,Message
FMT, 134, 39, RCIN, Qhhhhhhhhhhhhhh, TimeUS,C1,C2,C3,C4,C5,C6,C7,C8,C9,C10,C11,C12,C13,C14
FMT, 135, 35, RCOU, Qhhhhhhhhhhhh, TimeUS,Ch1,Ch2,Ch3,Ch4,Ch5,Ch6,Ch7,Ch8,Ch9,Ch10,Ch11,Ch12
FMT, 137, 25, BARO, Qffcf, TimeUS,Alt,Press,Temp,CRt
FMT, 138, 17, POWR, QCCH, TimeUS,Vcc,VServo,Flags
FMT, 145, 45, CMD, QHHHfffffff, TimeUS,CTot,CNum,CId,Prm1,Prm2,Prm3,Prm4,Lat,Lng,Alt
FMT, 146, 20, RAD, QBBBBBHH, TimeUS,RSSI,RemRSSI,TxBuf,Noise,RemNoise,RxErrors,Fixed
FMT, 148, 39, CAM, QIHLLeeccC, TimeUS,GPSTime,GPSWeek,Lat,Lng,Alt,RelAlt,Roll,Pitch,Yaw
FMT, 164, 29, ARSP, Qffcff, TimeUS,Airspeed,DiffPress,Temp,RawPress,Offset
FMT, 166, 25, CURR, QhhhHfh, TimeUS,Throttle,Volt,Curr,Vcc,CurrTot,Volt2
FMT, 165, 27, ATT, QccccCCCC, TimeUS,DesRoll,Roll,DesPitch,Pitch,DesYaw,Yaw,ErrRP,ErrYaw
FMT, 167, 30, MAG, QhhhhhhhhhB, TimeUS,MagX,MagY,MagZ,OfsX,OfsY,OfsZ,MOfsX,MOfsY,MOfsZ,Health
FMT, 170, 13, MODE, QMB, TimeUS,Mode,ModeNum
FMT, 131, 50, GPS2, QBIHBcLLeeEefB, TimeUS,Status,GMS,GWk,NSats,HDop,Lat,Lng,RAlt,Alt,Spd,GCrs,VZ,U
FMT, 136, 49, IMU2, QffffffIIfBB, TimeUS,GyrX,GyrY,GyrZ,AccX,AccY,AccZ,ErrG,ErrA,Temp,GyHlt,AcHlt
FMT, 149, 49, IMU3, QffffffIIfBB, TimeUS,GyrX,GyrY,GyrZ,AccX,AccY,AccZ,ErrG,ErrA,Temp,GyHlt,AcHlt
FMT, 139, 29, AHR2, QccCfLL, TimeUS,Roll,Pitch,Yaw,Alt,Lat,Lng
FMT, 180, 27, POS, QLLff, TimeUS,Lat,Lng,Alt,RelAlt
FMT, 140, 29, SIM, QccCfLL, TimeUS,Roll,Pitch,Yaw,Alt,Lat,Lng
FMT, 141, 47, EKF1, QccCffffffccc, TimeUS,Roll,Pitch,Yaw,VN,VE,VD,PN,PE,PD,GX,GY,GZ
FMT, 142, 30, EKF2, Qbbbcchhhhhh, TimeUS,Ratio,AZ1bias,AZ2bias,VWN,VWE,MN,ME,MD,MX,MY,MZ
FMT, 143, 31, EKF3, Qcccccchhhc, TimeUS,IVN,IVE,IVD,IPN,IPE,IPD,IMX,IMY,IMZ,IVT
FMT, 144, 31, EKF4, QcccccccbbBBH, TimeUS,SV,SP,SH,SMX,SMY,SMZ,SVT,OFN,EFE,FS,TS,SS
FMT, 150, 34, TERR, QBLLHffHH, TimeUS,Status,Lat,Lng,Spacing,TerrH,CHeight,Pending,Loaded
FMT, 151, 18, UBX1, QBHBBH, TimeUS,Instance,noisePerMS,jamInd,aPower,agcCnt
FMT, 152, 16, UBX2, QBbBbB, TimeUS,Instance,ofsI,magI,ofsQ,magQ
FMT, 153, 24, UBX3, QBfff, TimeUS,Instance,hAcc,vAcc,sAcc
FMT, 171, 42, GRAW, QIHBBddfBbB, TimeUS,WkMS,Week,numSV,sv,cpMes,prMes,doMes,mesQI,cno,lli
FMT, 172, 24, GRXH, QdHbBB, TimeUS,rcvTime,week,leapS,numMeas,recStat
FMT, 173, 41, GRXS, QddfBBBHBBBBB, TimeUS,prMes,cpMes,doMes,gnss,sv,freq,lock,cno,prD,cpD,doD,trk
FMT, 154, 19, ESC1, Qcccc, TimeUS,RPM,Volt,Curr,Temp
FMT, 155, 19, ESC2, Qcccc, TimeUS,RPM,Volt,Curr,Temp
FMT, 156, 19, ESC3, Qcccc, TimeUS,RPM,Volt,Curr,Temp
FMT, 157, 19, ESC4, Qcccc, TimeUS,RPM,Volt,Curr,Temp
FMT, 158, 19, ESC5, Qcccc, TimeUS,RPM,Volt,Curr,Temp
FMT, 159, 19, ESC6, Qcccc, TimeUS,RPM,Volt,Curr,Temp
FMT, 160, 19, ESC7, Qcccc, TimeUS,RPM,Volt,Curr,Temp
FMT, 161, 19, ESC8, Qcccc, TimeUS,RPM,Volt,Curr,Temp
FMT, 162, 28, EKF5, QBhhhcccCC, TimeUS,normInnov,FIX,FIY,AFI,HAGL,offset,RI,meaRng,errHAGL
FMT, 168, 30, MAG2, QhhhhhhhhhB, TimeUS,MagX,MagY,MagZ,OfsX,OfsY,OfsZ,MOfsX,MOfsY,MOfsZ,Health
FMT, 169, 30, MAG3, QhhhhhhhhhB, TimeUS,MagX,MagY,MagZ,OfsX,OfsY,OfsZ,MOfsX,MOfsY,MOfsZ,Health
FMT, 174, 31, ACC1, QQfff, TimeUS,SampleUS,AccX,AccY,AccZ
FMT, 175, 31, ACC2, QQfff, TimeUS,SampleUS,AccX,AccY,AccZ
FMT, 176, 31, ACC3, QQfff, TimeUS,SampleUS,AccX,AccY,AccZ
FMT, 177, 31, GYR1, QQfff, TimeUS,SampleUS,GyrX,GyrY,GyrZ
FMT, 178, 31, GYR2, QQfff, TimeUS,SampleUS,GyrX,GyrY,GyrZ
FMT, 179, 31, GYR3, QQfff, TimeUS,SampleUS,GyrX,GyrY,GyrZ
FMT, 181, 35, PIDR, Qffffff, TimeUS,Des,P,I,D,FF,AFF
FMT, 182, 35, PIDP, Qffffff, TimeUS,Des,P,I,D,FF,AFF
FMT, 183, 35, PIDY, Qffffff, TimeUS,Des,P,I,D,FF,AFF
FMT, 184, 35, PIDA, Qffffff, TimeUS,Des,P,I,D,FF,AFF
FMT, 185, 35, PIDS, Qffffff, TimeUS,Des,P,I,D,FF,AFF
FMT, 163, 25, BAR2, Qffcf, TimeUS,Alt,Press,Temp,CRt
FMT, 186, 35, VIBE, QfffIII, TimeUS,VibeX,VibeY,VibeZ,Clip0,Clip1,Clip2
FMT, 187, 43, IMT, Qffffffff, TimeUS,DelT,DelvT,DelAX,DelAY,DelAZ,DelVX,DelVY,DelVZ
FMT, 188, 43, IMT2, Qffffffff, TimeUS,DelT,DelvT,DelAX,DelAY,DelAZ,DelVX,DelVY,DelVZ
FMT, 189, 43, IMT3, Qffffffff, TimeUS,DelT,DelvT,DelAX,DelAY,DelAZ,DelVX,DelVY,DelVZ
FMT, 190, 24, ORGN, QBLLe, TimeUS,Type,Lat,Lng,Alt
FMT, 191, 19, RPM, Qff, TimeUS,rpm1,rpm2
FMT, 2, 30, PM, QIHIhhhBH, TimeUS,LTime,MLC,gDt,GDx,GDy,GDz,I2CErr,INSErr
FMT, 3, 14, STRT, QBH, TimeUS,SType,CTot
FMT, 0, 27, CTUN, Qcccchhf, TimeUS,NavRoll,Roll,NavPitch,Pitch,ThrOut,RdrOut,AccY
FMT, 1, 33, NTUN, QCfccccfI, TimeUS,Yaw,WpDist,TargBrg,NavBrg,AltErr,Arspd,Alt,GSpdCM
FMT, 8, 31, SONR, QHfffBBf, TimeUS,DistCM,Volt,BaroAlt,GSpd,Thr,Cnt,Corr
FMT, 9, 14, ARM, QBH, TimeUS,ArmState,ArmChecks
FMT, 147, 27, ATRP, QBBcfff, TimeUS,Type,State,Servo,Demanded,Achieved,P
FMT, 10, 18, STAT, QBfBB, TimeUS,isFlying,isFlyProb,Armed,Safety
FMT, 11, 28, OF, QBffff, TimeUS,Qual,flowX,flowY,bodyX,bodyY
FMT, 6, 59, TECS, Qffffffffffff, TimeUS,h,dh,h_dem,dh_dem,sp_dem,sp,dsp,ith,iph,th,ph,dsp_dem
MSG, 3453000, ArduPlane V3.4.0 (368af2ce)
STRT, 4015000, 5, 13
ARSP, 4015000, 0.0220617, 0.0002441406, 0.00, 0.0002441406, 2013.475
MSG, 4015000, zero airspeed calibrated
MSG, 4015000, 

 Ready to FLY.
STRT, 4015000, 5, 13
MSG, 4015000, New mission
CMD, 4015000, 13, 0, 16, 0, 0, 0, 0, 0, 0, 0
CMD, 4015000, 13, 1, 22, 0, 0, 0, 0, 53.94669, -1.064268, 20
CMD, 4015000, 13, 2, 178, 0, 20, 0, 0, 0, 0, 0
CMD, 4015000, 13, 3, 16, 0, 3, 0, 0, 53.94669, -1.060631, 20
CMD, 4015000, 13, 4, 87, 0, 0, 0, 0, 0, 0, 0
CMD, 4015000, 13, 5, 85, 0, 0, 0, 0, 0, 0, 0
CMD, 4015000, 13, 6, 86, 0, 0, 0, 0, 0, 0, 0
CMD, 4015000, 13, 7, 87, 0, 0, 0, 0, 0, 0, 0
CMD, 4015000, 13, 8, 86, 0, 0, 0, 0, 0, 0, 0
CMD, 4015000, 13, 9, 85, 0, 0, 0, 0, 0, 0, 0
CMD, 4015000, 13, 10, 87, 0, 0, 0, 0, 0, 0, 0
CMD, 4015000, 13, 11, 178, 0, 20, 0, 0, 0, 0, 0
CMD, 4015000, 13, 12, 21, 0, 0, 0, 0, 53.94711, -1.064247, 0
MODE, 4015000, Manual, 0
UBX3, 4135000, 0, 1.5, 2, 0.4
UBX3, 4155000, 0, 1.5, 2, 0.4
UBX3, 4155000, 0, 1.5, 2, 0.4
UBX3, 4175000, 0, 1.5, 2, 0.4
UBX3, 4195000, 0, 1.5, 2, 0.4
UBX3, 4215000, 0, 1.5, 2, 0.4
UBX3, 4215000, 0, 1.5, 2, 0.4
UBX3, 4235000, 0, 1.5, 2, 0.4
UBX3, 4255000, 0, 1.5, 2, 0.4
UBX3, 4275000, 0, 1.5, 2, 0.4
UBX3, 4275000, 0, 1.5, 2, 0.4
UBX3, 4295000, 0, 1.5, 2, 0.4
UBX3, 4315000, 0, 1.5, 2, 0.4
UBX3, 4335000, 0, 1.5, 2, 0.4
UBX3, 4335000, 0, 1.5, 2, 0.4
UBX3, 4355000, 0, 1.5, 2, 0.4
UBX3, 4415000, 0, 1.5, 2, 0.4
UBX3, 4615000, 0, 1.5, 2, 0.4
MSG, 4695000, init home
ORGN, 4695000, 1, 53.94664, -1.067111, 30.38
MSG, 4695000, gps alt: 3038
ORGN, 4695000, 1, 53.94664, -1.067111, 30.38
UBX3, 4815000, 0, 1.5, 2, 0.4
ORGN, 4895000, 1, 53.94664, -1.067111, 30.38
UBX3, 5015000, 0, 1.5, 2, 0.4
ORGN, 5095000, 1, 53.94664, -1.067111, 30.38
UBX3, 5215000, 0, 1.5, 2, 0.4
ORGN, 5295000, 1, 53.94664, -1.067111, 30.38
UBX3, 5415000, 0, 1.5, 2, 0.4
ORGN, 5495000, 1, 53.94664, -1.067111, 30.38
UBX3, 5615000, 0, 1.5, 2, 0.4
ORGN, 5695000, 1, 53.94664, -1.067111, 30.38
UBX3, 5815000, 0, 1.5, 2, 0.4
ORGN, 5895000, 1, 53.94664, -1.067111, 30.38
UBX3, 6015000, 0, 1.5, 2, 0.4
ORGN, 6095000, 1, 53.94664, -1.067111, 30.38
UBX3, 6215000, 0, 1.5, 2, 0.4
ORGN, 6295000, 1, 53.94664, -1.067111, 30.38
UBX3, 6415000, 0, 1.5, 2, 0.4
ORGN, 6495000, 1, 53.94664, -1.067111, 30.38
UBX3, 6615000, 0, 1.5, 2, 0.4
ORGN, 6695000, 1, 53.94664, -1.067111, 30.38
UBX3, 6815000, 0, 1.5, 2, 0.4
ORGN, 6895000, 1, 53.94664, -1.067111, 30.38
UBX3, 7015000, 0, 1.5, 2, 0.4
ORGN, 7095000, 1, 53.94664, -1.067111, 30.38
UBX3, 7215000, 0, 1.5, 2, 0.4
ORGN, 7295000, 1, 53.94664, -1.067111, 30.38
UBX3, 7415000, 0, 1.5, 2, 0.4
ORGN, 7495000, 1, 53.94664, -1.067111, 30.38
UBX3, 7615000, 0, 1.5, 2, 0.4
ORGN, 7695000, 1, 53.94664, -1.067111, 30.38
UBX3, 7815000, 0, 1.5, 2, 0.4
ORGN, 7895000, 1, 53.94664, -1.067111, 30.38
UBX3, 8015000, 0, 1.5, 2, 0.4
ORGN, 8095000, 1, 53.94664, -1.067111, 30.38
UBX3, 8215000, 0, 1.5, 2, 0.4
ORGN, 8295000, 1, 53.94664, -1.067111, 30.38
UBX3, 8415000, 0, 1.5, 2, 0.4
ORGN, 8495000, 1, 53.94664, -1.067111, 30.38
UBX3, 8615000, 0, 1.5, 2, 0.4
ORGN, 8695000, 1, 53.94664, -1.067111, 30.38
UBX3, 8815000, 0, 1.5, 2, 0.4
ORGN, 8895000, 1, 53.94664, -1.067111, 30.38
UBX3, 9015000, 0, 1.5, 2, 0.4
ORGN, 9095000, 1, 53.94664, -1.067111, 30.38
UBX3, 9215000, 0, 1.5, 2, 0.4
ORGN, 9295000, 1, 53.94664, -1.067111, 30.38
UBX3, 9415000, 0, 1.5, 2, 0.4
ORGN, 9495000, 1, 53.94664, -1.067111, 30.38
UBX3, 9615000, 0, 1.5, 2, 0.4
ORGN, 9695000, 1, 53.94664, -1.067111, 30.38
UBX3, 9815000, 0, 1.5, 2, 0.4
ORGN, 9895000, 1, 53.94664, -1.067111, 30.38
UBX3, 10015000, 0, 1.5, 2, 0.4
ORGN, 10095000, 1, 53.94664, -1.067111, 30.38
UBX3, 10215000, 0, 1.5, 2, 0.4
ORGN, 10295000, 1, 53.94664, -1.067111, 30.38
UBX3, 10415000, 0, 1.5, 2, 0.4
ORGN, 10495000, 1, 53.94664, -1.067111, 30.38
UBX3, 10615000, 0, 1.5, 2, 0.4
ORGN, 10695000, 1, 53.94664, -1.067111, 30.38
UBX3, 10815000, 0, 1.5, 2, 0.4
ORGN, 10895000, 1, 53.94664, -1.067111, 30.38
UBX3, 11015000, 0, 1.5, 2, 0.4
ORGN, 11095000, 1, 53.94664, -1.067111, 30.38
UBX3, 11215000, 0, 1.5, 2, 0.4
ORGN, 11295000, 1, 53.94664, -1.067111, 30.38
UBX3, 11415000, 0, 1.5, 2, 0.4
ORGN, 11495000, 1, 53.94664, -1.067111, 30.38
UBX3, 11615000, 0, 1.5, 2, 0.4
ORGN, 11695000, 1, 53.94664, -1.067111, 30.38
UBX3, 11815000, 0, 1.5, 2, 0.4
ORGN, 11895000, 1, 53.94664, -1.067111, 30.38
UBX3, 12015000, 0, 1.5, 2, 0.4
ORGN, 12095000, 1, 53.94664, -1.067111, 30.38
UBX3, 12215000, 0, 1.5, 2, 0.4
ORGN, 12295000, 1, 53.94664, -1.067111, 30.38
UBX3, 12415000, 0, 1.5, 2, 0.4
ORGN, 12495000, 1, 53.94664, -1.067111, 30.38
UBX3, 12615000, 0, 1.5, 2, 0.4
ORGN, 12695000, 1, 53.94664, -1.067111, 30.38
UBX3, 12815000, 0, 1.5, 2, 0.4
ORGN, 12895000, 1, 53.94664, -1.067111, 30.38
UBX3, 13015000, 0, 1.5, 2, 0.4
ORGN, 13095000, 1, 53.94664, -1.067111, 30.38
UBX3, 13215000, 0, 1.5, 2, 0.4
ORGN, 13295000, 1, 53.94664, -1.067111, 30.38
UBX3, 13415000, 0, 1.5, 2, 0.4
ORGN, 13495000, 1, 53.94664, -1.067111, 30.38
UBX3, 13615000, 0, 1.5, 2, 0.4
ORGN, 13695000, 1, 53.94664, -1.067111, 30.38
UBX3, 13815000, 0, 1.5, 2, 0.4
ORGN, 13895000, 1, 53.94664, -1.067111, 30.38
UBX3, 14015000, 0, 1.5, 2, 0.4
ORGN, 14095000, 1, 53.94664, -1.067111, 30.38
UBX3, 14215000, 0, 1.5, 2, 0.4
ORGN, 14295000, 1, 53.94664, -1.067111, 30.38
UBX3, 14415000, 0, 1.5, 2, 0.4
ORGN, 14495000, 1, 53.94664, -1.067111, 30.38
UBX3, 14615000, 0, 1.5, 2, 0.4
ORGN, 14695000, 1, 53.94664, -1.067111, 30.38
UBX3, 14815000, 0, 1.5, 2, 0.4
ORGN, 14895000, 1, 53.94664, -1.067111, 30.38
UBX3, 15015000, 0, 1.5, 2, 0.4
ORGN, 15095000, 1, 53.94664, -1.067111, 30.38
UBX3, 15215000, 0, 1.5, 2, 0.4
ORGN, 15295000, 1, 53.94664, -1.067111, 30.38
UBX3, 15415000, 0, 1.5, 2, 0.4
ORGN, 15495000, 1, 53.94664, -1.067111, 30.38
UBX3, 15615000, 0, 1.5, 2, 0.4
ORGN, 15695000, 1, 53.94664, -1.067111, 30.38
UBX3, 15815000, 0, 1.5, 2, 0.4
ORGN, 15895000, 1, 53.94664, -1.067111, 30.38
UBX3, 16015000, 0, 1.5, 2, 0.4
ORGN, 16095000, 1, 53.94664, -1.067111, 30.38
UBX3, 16215000, 0, 1.5, 2, 0.4
ORGN, 16295000, 1, 53.94664, -1.067111, 30.38
UBX3, 16415000, 0, 1.5, 2, 0.4
ORGN, 16495000, 1, 53.94664, -1.067111, 30.38
UBX3, 16615000, 0, 1.5, 2, 0.4
ORGN, 16695000, 1, 53.94664, -1.067111, 30.38
UBX3, 16815000, 0, 1.5, 2, 0.4
ORGN, 16895000, 1, 53.94664, -1.067111, 30.38
UBX3, 17015000, 0, 1.5, 2, 0.4
ORGN, 17095000, 1, 53.94664, -1.067111, 30.38
UBX3, 17215000, 0, 1.5, 2, 0.4
ORGN, 17295000, 0, 53.94664, -1.067111, 30.38
ORGN, 17295000, 1, 53.94664, -1.067111, 30.38
UBX3, 17415000, 0, 1.5, 2, 0.4
ORGN, 17495000, 0, 53.94664, -1.067111, 30.38
ORGN, 17495000, 1, 53.94664, -1.067111, 30.38
UBX3, 17615000, 0, 1.5, 2, 0.4
ORGN, 17695000, 0, 53.94664, -1.067111, 30.38
ORGN, 17695000, 1, 53.94664, -1.067111, 30.38
UBX3, 17815000, 0, 1.5, 2, 0.4
ORGN, 17895000, 0, 53.94664, -1.067111, 30.38
ORGN, 17895000, 1, 53.94664, -1.067111, 30.38
UBX3, 18015000, 0, 1.5, 2, 0.4
ORGN, 18095000, 0, 53.94664, -1.067111, 30.38
ORGN, 18095000, 1, 53.94664, -1.067111, 30.38
UBX3, 18215000, 0, 1.5, 2, 0.4
ORGN, 18295000, 0, 53.94664, -1.067111, 30.38
ORGN, 18295000, 1, 53.94664, -1.067111, 30.38
UBX3, 18415000, 0, 1.5, 2, 0.4
ORGN, 18495000, 0, 53.94664, -1.067111, 30.38
ORGN, 18495000, 1, 53.94664, -1.067111, 30.38
UBX3, 18615000, 0, 1.5, 2, 0.4
ORGN, 18695000, 0, 53.94664, -1.067111, 30.38
ORGN, 18695000, 1, 53.94664, -1.067111, 30.38
UBX3, 18815000, 0, 1.5, 2, 0.4
ORGN, 18895000, 0, 53.94664, -1.067111, 30.38
ORGN, 18895000, 1, 53.94664, -1.067111, 30.38
UBX3, 19015000, 0, 1.5, 2, 0.4
ORGN, 19095000, 0, 53.94664, -1.067111, 30.38
ORGN, 19095000, 1, 53.94664, -1.067111, 30.38
UBX3, 19215000, 0, 1.5, 2, 0.4
ORGN, 19295000, 0, 53.94664, -1.067111, 30.38
ORGN, 19295000, 1, 53.94664, -1.067111, 30.38
UBX3, 19415000, 0, 1.5, 2, 0.4
ORGN, 19495000, 0, 53.94664, -1.067111, 30.38
ORGN, 19495000, 1, 53.94664, -1.067111, 30.38
UBX3, 19615000, 0, 1.5, 2, 0.4
ORGN, 19695000, 0, 53.94664, -1.067111, 30.38
ORGN, 19695000, 1, 53.94664, -1.067111, 30.38
UBX3, 19815000, 0, 1.5, 2, 0.4
ORGN, 19895000, 0, 53.94664, -1.067111, 30.38
ORGN, 19895000, 1, 53.94664, -1.067111, 30.38
UBX3, 20015000, 0, 1.5, 2, 0.4
ORGN, 20095000, 0, 53.94664, -1.067111, 30.38
ORGN, 20095000, 1, 53.94664, -1.067111, 30.38
UBX3, 20215000, 0, 1.5, 2, 0.4
ORGN, 20295000, 0, 53.94664, -1.067111, 30.38
ORGN, 20295000, 1, 53.94664, -1.067111, 30.38
UBX3, 20415000, 0, 1.5, 2, 0.4
ORGN, 20495000, 0, 53.94664, -1.067111, 30.38
ORGN, 20495000, 1, 53.94664, -1.067111, 30.38
UBX3, 20615000, 0, 1.5, 2, 0.4
ORGN, 20695000, 0, 53.94664, -1.067111, 30.38
ORGN, 20695000, 1, 53.94664, -1.067111, 30.38
UBX3, 20815000, 0, 1.5, 2, 0.4
ORGN, 20895000, 0, 53.94664, -1.067111, 30.38
ORGN, 20895000, 1, 53.94664, -1.067111, 30.38
UBX3, 21015000, 0, 1.5, 2, 0.4
ORGN, 21095000, 0, 53.94664, -1.067111, 30.38
ORGN, 21095000, 1, 53.94664, -1.067111, 30.38
UBX3, 21215000, 0, 1.5, 2, 0.4
ORGN, 21295000, 0, 53.94664, -1.067111, 30.38
ORGN, 21295000, 1, 53.94664, -1.067111, 30.38
UBX3, 21415000, 0, 1.5, 2, 0.4
ORGN, 21495000, 0, 53.94664, -1.067111, 30.38
ORGN, 21495000, 1, 53.94664, -1.067111, 30.38
UBX3, 21615000, 0, 1.5, 2, 0.4
ORGN, 21695000, 0, 53.94664, -1.067111, 30.38
ORGN, 21695000, 1, 53.94664, -1.067111, 30.38
UBX3, 21815000, 0, 1.5, 2, 0.4
ORGN, 21895000, 0, 53.94664, -1.067111, 30.38
ORGN, 21895000, 1, 53.94664, -1.067111, 30.38
UBX3, 22015000, 0, 1.5, 2, 0.4
ORGN, 22095000, 0, 53.94664, -1.067111, 30.38
ORGN, 22095000, 1, 53.94664, -1.067111, 30.38
UBX3, 22215000, 0, 1.5, 2, 0.4
ORGN, 22295000, 0, 53.94664, -1.067111, 30.38
ORGN, 22295000, 1, 53.94664, -1.067111, 30.38
UBX3, 22415000, 0, 1.5, 2, 0.4
ORGN, 22495000, 0, 53.94664, -1.067111, 30.38
ORGN, 22495000, 1, 53.94664, -1.067111, 30.38
UBX3, 22615000, 0, 1.5, 2, 0.4
ORGN, 22695000, 0, 53.94664, -1.067111, 30.38
ORGN, 22695000, 1, 53.94664, -1.067111, 30.38
UBX3, 22815000, 0, 1.5, 2, 0.4
ORGN, 22895000, 0, 53.94664, -1.067111, 30.38
ORGN, 22895000, 1, 53.94664, -1.067111, 30.38
UBX3, 23015000, 0, 1.5, 2, 0.4
ORGN, 23095000, 0, 53.94664, -1.067111, 30.38
ORGN, 23095000, 1, 53.94664, -1.067111, 30.38
UBX3, 23215000, 0, 1.5, 2, 0.4
ORGN, 23295000, 0, 53.94664, -1.067111, 30.38
ORGN, 23295000, 1, 53.94664, -1.067111, 30.38
UBX3, 23415000, 0, 1.5, 2, 0.4
ORGN, 23495000, 0, 53.94664, -1.067111, 30.38
ORGN, 23495000, 1, 53.94664, -1.067111, 30.38
UBX3, 23615000, 0, 1.5, 2, 0.4
ORGN, 23695000, 0, 53.94664, -1.067111, 30.38
ORGN, 23695000, 1, 53.94664, -1.067111, 30.38
UBX3, 23815000, 0, 1.5, 2, 0.4
ORGN, 23895000, 0, 53.94664, -1.067111, 30.38
ORGN, 23895000, 1, 53.94664, -1.067111, 30.38
UBX3, 24015000, 0, 1.5, 2, 0.4
ORGN, 24095000, 0, 53.94664, -1.067111, 30.38
ORGN, 24095000, 1, 53.94664, -1.067111, 30.38
UBX3, 24215000, 0, 1.5, 2, 0.4
ORGN, 24295000, 0, 53.94664, -1.067111, 30.38
ORGN, 24295000, 1, 53.94664, -1.067111, 30.38
UBX3, 24415000, 0, 1.5, 2, 0.4
ORGN, 24495000, 0, 53.94664, -1.067111, 30.38
ORGN, 24495000, 1, 53.94664, -1.067111, 30.38
UBX3, 24615000, 0, 1.5, 2, 0.4
ORGN, 24695000, 0, 53.94664, -1.067111, 30.38
ORGN, 24695000, 1, 53.94664, -1.067111, 30.38
UBX3, 24815000, 0, 1.5, 2, 0.4
ORGN, 24895000, 0, 53.94664, -1.067111, 30.38
ORGN, 24895000, 1, 53.94664, -1.067111, 30.38
UBX3, 25015000, 0, 1.5, 2, 0.4
ORGN, 25095000, 0, 53.94664, -1.067111, 30.38
ORGN, 25095000, 1, 53.94664, -1.067111, 30.38
UBX3, 25215000, 0, 1.5, 2, 0.4
ORGN, 25295000, 0, 53.94664, -1.067111, 30.38
ORGN, 25295000, 1, 53.94664, -1.067111, 30.38
UBX3, 25415000, 0, 1.5, 2, 0.4
ORGN, 25495000, 0, 53.94664, -1.067111, 30.38
ORGN, 25495000, 1, 53.94664, -1.067111, 30.38
UBX3, 25615000, 0, 1.5, 2, 0.4
ORGN, 25695000, 0, 53.94664, -1.067111, 30.38
ORGN, 25695000, 1, 53.94664, -1.067111, 30.38
UBX3, 25815000, 0, 1.5, 2, 0.4
ORGN, 25895000, 0, 53.94664, -1.067111, 30.38
ORGN, 25895000, 1, 53.94664, -1.067111, 30.38
UBX3, 26015000, 0, 1.5, 2, 0.4
ORGN, 26095000, 0, 53.94664, -1.067111, 30.38
ORGN, 26095000, 1, 53.94664, -1.067111, 30.38
MSG, 26155000, New mission
CMD, 26155000, 13, 0, 16, 0, 0, 0, 0, 53.94664, -1.067111, 30.38
CMD, 26155000, 13, 1, 22, 0, 0, 0, 0, 53.94669, -1.064268, 20
CMD, 26155000, 13, 2, 178, 0, 20, 0, 0, 0, 0, 0
CMD, 26155000, 13, 3, 16, 0, 3, 0, 0, 53.94669, -1.060631, 20
CMD, 26155000, 13, 4, 87, 0, 0, 0, 0, 0, 0, 0
CMD, 26155000, 13, 5, 85, 0, 0, 0, 0, 0, 0, 0
CMD, 26155000, 13, 6, 86, 0, 0, 0, 0, 0, 0, 0
CMD, 26155000, 13, 7, 87, 0, 0, 0, 0, 0, 0, 0
CMD, 26155000, 13, 8, 86, 0, 0, 0, 0, 0, 0, 0
CMD, 26155000, 13, 9, 85, 0, 0, 0, 0, 0, 0, 0
CMD, 26155000, 13, 10, 87, 0, 0, 0, 0, 0, 0, 0
CMD, 26155000, 13, 11, 178, 0, 20, 0, 0, 0, 0, 0
CMD, 26155000, 13, 12, 21, 0, 0, 0, 0, 53.94711, -1.064247, 0
UBX3, 26215000, 0, 1.5, 2, 0.4
ORGN, 26295000, 0, 53.94664, -1.067111, 30.38
ORGN, 26295000, 1, 53.94664, -1.067111, 30.38
UBX3, 26415000, 0, 1.5, 2, 0.4
ORGN, 26495000, 0, 53.94664, -1.067111, 30.38
ORGN, 26495000, 1, 53.94664, -1.067111, 30.38
UBX3, 26615000, 0, 1.5, 2, 0.4
ORGN, 26695000, 0, 53.94664, -1.067111, 30.38
ORGN, 26695000, 1, 53.94664, -1.067111, 30.38
UBX3, 26815000, 0, 1.5, 2, 0.4
ORGN, 26895000, 0, 53.94664, -1.067111, 30.38
ORGN, 26895000, 1, 53.94664, -1.067111, 30.38
UBX3, 27015000, 0, 1.5, 2, 0.4
ORGN, 27095000, 0, 53.94664, -1.067111, 30.38
ORGN, 27095000, 1, 53.94664, -1.067111, 30.38
UBX3, 27215000, 0, 1.5, 2, 0.4
ORGN, 27295000, 0, 53.94664, -1.067111, 30.38
ORGN, 27295000, 1, 53.94664, -1.067111, 30.38
UBX3, 27415000, 0, 1.5, 2, 0.4
ORGN, 27495000, 0, 53.94664, -1.067111, 30.38
ORGN, 27495000, 1, 53.94664, -1.067111, 30.38
UBX3, 27615000, 0, 1.5, 2, 0.4
ORGN, 27695000, 0, 53.94664, -1.067111, 30.38
ORGN, 27695000, 1, 53.94664, -1.067111, 30.38
UBX3, 27815000, 0, 1.5, 2, 0.4
ORGN, 27895000, 0, 53.94664, -1.067111, 30.38
ORGN, 27895000, 1, 53.94664, -1.067111, 30.38
UBX3, 28015000, 0, 1.5, 2, 0.4
ORGN, 28095000, 0, 53.94664, -1.067111, 30.38
ORGN, 28095000, 1, 53.94664, -1.067111, 30.38
UBX3, 28215000, 0, 1.5, 2, 0.4
ORGN, 28295000, 0, 53.94664, -1.067111, 30.38
ORGN, 28295000, 1, 53.94664, -1.067111, 30.38
UBX3, 28415000, 0, 1.5, 2, 0.4
ORGN, 28495000, 0, 53.94664, -1.067111, 30.38
ORGN, 28495000, 1, 53.94664, -1.067111, 30.38
UBX3, 28615000, 0, 1.5, 2, 0.4
ORGN, 28695000, 0, 53.94664, -1.067111, 30.38
ORGN, 28695000, 1, 53.94664, -1.067111, 30.38
UBX3, 28815000, 0, 1.5, 2, 0.4
ORGN, 28895000, 0, 53.94664, -1.067111, 30.38
ORGN, 28895000, 1, 53.94664, -1.067111, 30.38
UBX3, 29015000, 0, 1.5, 2, 0.4
ORGN, 29095000, 0, 53.94664, -1.067111, 30.38
ORGN, 29095000, 1, 53.94664, -1.067111, 30.38
UBX3, 29215000, 0, 1.5, 2, 0.4
ORGN, 29295000, 0, 53.94664, -1.067111, 30.38
ORGN, 29295000, 1, 53.94664, -1.067111, 30.38
UBX3, 29415000, 0, 1.5, 2, 0.4
ORGN, 29495000, 0, 53.94664, -1.067111, 30.38
ORGN, 29495000, 1, 53.94664, -1.067111, 30.38
UBX3, 29615000, 0, 1.5, 2, 0.4
ORGN, 29695000, 0, 53.94664, -1.067111, 30.38
ORGN, 29695000, 1, 53.94664, -1.067111, 30.38
UBX3, 29815000, 0, 1.5, 2, 0.4
ORGN, 29895000, 0, 53.94664, -1.067111, 30.38
ORGN, 29895000, 1, 53.94664, -1.067111, 30.38
UBX3, 30015000, 0, 1.5, 2, 0.4
ORGN, 30095000, 0, 53.94664, -1.067111, 30.38
ORGN, 30095000, 1, 53.94664, -1.067111, 30.38
UBX3, 30215000, 0, 1.5, 2, 0.4
ORGN, 30295000, 0, 53.94664, -1.067111, 30.38
ORGN, 30295000, 1, 53.94664, -1.067111, 30.38
UBX3, 30415000, 0, 1.5, 2, 0.4
ORGN, 30495000, 0, 53.94664, -1.067111, 30.38
ORGN, 30495000, 1, 53.94664, -1.067111, 30.38
UBX3, 30615000, 0, 1.5, 2, 0.4
ORGN, 30695000, 0, 53.94664, -1.067111, 30.38
ORGN, 30695000, 1, 53.94664, -1.067111, 30.38
UBX3, 30815000, 0, 1.5, 2, 0.4
ORGN, 30895000, 0, 53.94664, -1.067111, 30.38
ORGN, 30895000, 1, 53.94664, -1.067111, 30.38
UBX3, 31015000, 0, 1.5, 2, 0.4
ORGN, 31095000, 0, 53.94664, -1.067111, 30.38
ORGN, 31095000, 1, 53.94664, -1.067111, 30.38
UBX3, 31215000, 0, 1.5, 2, 0.4
ORGN, 31295000, 0, 53.94664, -1.067111, 30.38
ORGN, 31295000, 1, 53.94664, -1.067111, 30.38
UBX3, 31415000, 0, 1.5, 2, 0.4
ORGN, 31495000, 0, 53.94664, -1.067111, 30.38
ORGN, 31495000, 1, 53.94664, -1.067111, 30.38
UBX3, 31615000, 0, 1.5, 2, 0.4
MSG, 31655000, Throttle armed!
ARM, 31655000, 1, 1
MODE, 31655000, Manual, 0
SONR, 31655000, 0, 0, -0.02187216, 0, 156, 0, 0
ATT, 31675000, 0.00, 0.01, 0.00, 14.20, 0.00, 89.92, 0.00, 0.00
PIDR, 31675000, 0, 0, 0, 0, 0, 0
PIDP, 31675000, 0, 0, 0, 0, 0, 0
PIDY, 31675000, 0, 0, 0, 0, 0, 0
PIDS, 31675000, 0, 0, 0, 0, 0, 0
EKF1, 31675000, 0.01, 14.20, 89.92, -0.006481224, -0.01684505, -0.006340772, -0.003949616, -0.01277443, -0.01242077, 0.02, 0.01, 0.01
EKF2, 31675000, 50, 1, 1, 0.00, 0.00, 161, -3, -362, 0, 0, 0
EKF3, 31675000, 0.00, -0.01, 0.00, 0.00, -0.01, -0.03, 0, 0, 0, 0.00
EKF4, 31675000, 0.00, 0.00, 0.00, 0.00, 0.00, 0.00, 0.00, 0, 0, 0, 16, 9023
AHR2, 31675000, 0.00, 14.42, 90.58, 30.35, 53.94664, -1.067111
SIM, 31675000, 0.00, 14.15, 90.00, 30.38, 53.94664, -1.067111
POS, 31675000, 53.94664, -1.0671111, 30.39, 0.01242077
IMU, 31675000, 0.0003428085, 0.0001551628, 9.279422E-05, 2.399902, 0.005042556, -9.497687, 0, 0, 0, 1, 1
IMU2, 31675000, 0.0008847102, 0.0004066207, 0.0007544311, 2.390312, -0.003614034, -9.492623, 0, 0, 0, 1, 1
IMT, 31675000, 0.02, 0.02, 6.856171E-06, 3.103255E-06, 1.855884E-06, 0.04799804, 0.0001008511, -0.1899537
IMT2, 31675000, 0.02, 0.02, 1.76942E-05, 8.132414E-06, 1.508862E-05, 0.04780624, -7.228068E-05, -0.1898525
SONR, 31675000, 0, 0, -0.02187216, 0, 156, 0, 0
ATT, 31695000, 0.00, 0.01, 0.00, 14.20, 0.00, 89.92, 0.00, 0.00
PIDR, 31695000, 0, 0, 0, 0, 0, 0
PIDP, 31695000, 0, 0, 0, 0, 0, 0
PIDY, 31695000, 0, 0, 0, 0, 0, 0
PIDS, 31695000, 0, 0, 0, 0, 0, 0
EKF1, 31695000, 0.01, 14.20, 89.92, -0.006528085, -0.01693598, -0.006266207, -0.003993562, -0.01280733, -0.01234745, 0.02, 0.01, 0.01
EKF2, 31695000, 50, 1, 1, 0.00, 0.00, 161, -3, -362, 0, 0, 0
EKF3, 31695000, 0.00, -0.01, 0.00, 0.00, -0.01, -0.03, 0, 0, 0, 0.00
EKF4, 31695000, 0.00, 0.00, 0.00, 0.00, 0.00, 0.00, 0.00, 0, 0, 0, 16, 9023
AHR2, 31695000, 0.00, 14.42, 90.59, 30.35, 53.94664, -1.067111
SIM, 31695000, 0.00, 14.15, 90.00, 30.38, 53.94664, -1.067111
POS, 31695000, 53.94664, -1.0671111, 30.39, 0.01234745
IMU, 31695000, 0.001058243, 0.0007062333, 0.0001056197, 2.395322, 0.006866936, -9.509396, 0, 0, 0, 1, 1
IMU2, 31695000, 0.0006812677, 0.000405083, 0.0009002038, 2.392401, -0.002541484, -9.497792, 0, 0, 0, 1, 1
IMT, 31695000, 0.02, 0.02, 2.116485E-05, 1.412467E-05, 2.112393E-06, 0.04790643, 0.0001373387, -0.1901879
IMT2, 31695000, 0.02, 0.02, 1.362535E-05, 8.10166E-06, 1.800408E-05, 0.04784802, -5.082968E-05, -0.1899558
MAG, 31695000, 85, -162, -352, 4, 13, -14, 0, 0, 0, 1
MAG2, 31695000, 85, -162, -352, 4, 13, -14, 0, 0, 0, 1
ARSP, 31695000, 0.0220617, 0.0002441406, 0.00, 0.0002441406, 2013.475
BARO, 31695000, 0.01640412, 100960.7, 29.79, -0.07427076
SONR, 31695000, 0, 0, 0.01640412, 0, 156, 0, 0
CTUN, 31695000, 0.00, 0.01, 0.00, 14.20, 0, 0, 0.006866936
NTUN, 31695000, 89.92, 0.006551542, 0.00, 0.00, -0.01, 0.02, 0.01640412, 0
RCIN, 31695000, 1500, 1500, 1000, 1500, 1800, 1000, 1000, 1800, 0, 0, 0, 0, 0, 0
RCOU, 31695000, 1500, 1500, 1000, 1500, 1500, 1500, 1500, 1500, 1000, 1000, 1000, 1000
VIBE, 31695000, 0.00582755, 0.005662217, 0.005851992, 0, 0, 0
ATT, 31715000, 0.00, 0.01, 0.00, 14.20, 0.00, 89.92, 0.00, 0.00
PIDR, 31715000, 0, 0, 0, 0, 0, 0
PIDP, 31715000, 0, 0, 0, 0, 0, 0
PIDY, 31715000, 0, 0, 0, 0, 0, 0
PIDS, 31715000, 0, 0, 0, 0, 0, 0
EKF1, 31715000, 0.01, 14.20, 89.92, -0.006515695, -0.0170754, -0.006391288, -0.004038032, -0.01284226, -0.01248608, 0.02, 0.01, 0.01
EKF2, 31715000, 50, 1, 1, 0.00, 0.00, 161, -3, -362, 0, 0, 0
EKF3, 31715000, 0.00, -0.01, 0.00, 0.00, -0.01, 0.00, 0, 0, 0, 0.00
EKF4, 31715000, 0.00, 0.00, 0.00, 0.00, 0.00, 0.00, 0.00, 0, 0, 0, 16, 9023
AHR2, 31715000, 0.00, 14.42, 90.59, 30.39, 53.94664, -1.067111
SIM, 31715000, 0.00, 14.15, 90.00, 30.38, 53.94664, -1.067111
POS, 31715000, 53.94664, -1.0671111, 30.39, 0.01248608
IMU, 31715000, 0.001095988, 0.0002984499, 0.0003813871, 2.395202, -0.0007264641, -9.509667, 0, 0, 0, 1, 1
IMU2, 31715000, 0.0003206967, 0.001121826, 0.0005911128, 2.389009, -0.001031034, -9.503201, 0, 0, 0, 1, 1
IMT, 31715000, 0.02, 0.02, 2.191976E-05, 5.968999E-06, 7.627741E-06, 0.04790404, -1.452928E-05, -0.1901933
IMT2, 31715000, 0.02, 0.02, 6.413933E-06, 2.243653E-05, 1.182226E-05, 0.04778019, -2.062068E-05, -0.190064
SONR, 31715000, 0, 0, 0.01640412, 0, 156, 0, 0
ATT, 31735000, 0.00, 0.01, 0.00, 14.20, 0.00, 89.92, 0.00, 0.00
PIDR, 31735000, 0, 0, 0, 0, 0, 0
PIDP, 31735000, 0, 0, 0, 0, 0, 0
PIDY, 31735000, 0, 0, 0, 0, 0, 0
PIDS, 31735000, 0, 0, 0, 0, 0, 0
EKF1, 31735000, 0.01, 14.20, 89.92, -0.006574687, -0.01723402, -0.006519191, -0.004083031, -0.01288017, -0.01262764, 0.02, 0.01, 0.01
EKF2, 31735000, 50, 1, 1, 0.00, 0.00, 161, -3, -362, 0, 0, 0
EKF3, 31735000, 0.00, -0.01, 0.00, 0.00, -0.01, 0.00, 0, 0, 0, 0.00
EKF4, 31735000, 0.00, 0.00, 0.00, 0.00, 0.00, 0.00, 0.00, 0, 0, 0, 16, 9023
AHR2, 31735000, 0.00, 14.42, 90.59, 30.39, 53.94664, -1.067111
SIM, 31735000, 0.00, 14.15, 90.00, 30.38, 53.94664, -1.067111
POS, 31735000, 53.94664, -1.0671111, 30.39, 0.01262764
IMU, 31735000, 0.0008062407, 0.0006419424, 0.0007668501, 2.38798, 0.003951486, -9.503969, 0, 0, 0, 1, 1
IMU2, 31735000, 0.0009170007, 0.0005877052, -0.0001697529, 2.394491, 0.001247876, -9.50956, 0, 0, 0, 1, 1
IMT, 31735000, 0.02, 0.02, 1.612481E-05, 1.283885E-05, 1.5337E-05, 0.0477596, 7.902971E-05, -0.1900794
IMT2, 31735000, 0.02, 0.02, 1.834001E-05, 1.17541E-05, -3.395057E-06, 0.04788981, 2.495751E-05, -0.1901912
SONR, 31735000, 0, 0, 0.01640412, 0, 156, 0, 0
ATT, 31755000, 0.00, 0.01, 0.00, 14.20, 0.00, 89.92, 0.00, 0.00
PIDR, 31755000, 0, 0, 0, 0, 0, 0
PIDP, 31755000, 0, 0, 0, 0, 0, 0
PIDY, 31755000, 0, 0, 0, 0, 0, 0
PIDS, 31755000, 0, 0, 0, 0, 0, 0
EKF1, 31755000, 0.01, 14.20, 89.92, -0.006650389, -0.01714962, -0.006647293, -0.004129457, -0.01291879, -0.01277218, 0.02, 0.01, 0.01
EKF2, 31755000, 50, 1, 1, 0.00, 0.00, 161, -3, -362, 0, 0, 0
EKF3, 31755000, 0.00, -0.01, 0.00, 0.00, -0.01, 0.00, 0, 0, 0, 0.00
EKF4, 31755000, 0.00, 0.00, 0.00, 0.00, 0.00, 0.00, 0.00, 0, 0, 0, 16, 9023
AHR2, 31755000, 0.00, 14.42, 90.59, 30.39, 53.94664, -1.067111
SIM, 31755000, 0.00, 14.15, 90.00, 30.38, 53.94664, -1.067111
POS, 31755000, 53.94664, -1.0671111, 30.39, 0.01277218
IMU, 31755000, 0.0006045521, -1.149872E-05, -0.0001512558, 2.404756, 0.0006897658, -9.508828, 0, 0, 0, 1, 1
IMU2, 31755000, -1.703849E-05, 0.000433799, 0.0005153154, 2.40118, 0.006263666, -9.498699, 0, 0, 0, 1, 1
IMT, 31755000, 0.02, 0.02, 1.209104E-05, -2.299744E-07, -3.025116E-06, 0.04809511, 1.379532E-05, -0.1901766
IMT2, 31755000, 0.02, 0.02, -3.407698E-07, 8.67598E-06, 1.030631E-05, 0.0480236, 0.0001252733, -0.189974
SONR, 31755000, 0, 0, 0.01640412, 0, 156, 0, 0
ATT, 31775000, 0.00, 0.01, 0.00, 14.20, 0.00, 89.92, 0.00, 0.00
PIDR, 31775000, 0, 0, 0, 0, 0, 0
PIDP, 31775000, 0, 0, 0, 0, 0, 0
PIDY, 31775000, 0, 0, 0, 0, 0, 0
PIDS, 31775000, 0, 0, 0, 0, 0, 0
EKF1, 31775000, 0.01, 14.20, 89.92, -0.006667688, -0.01734077, -0.006656999, -0.004176882, -0.01295847, -0.01291853, 0.02, 0.01, 0.01
EKF2, 31775000, 50, 1, 1, 0.00, 0.00, 161, -3, -362, 0, 0, 0
EKF3, 31775000, 0.00, -0.01, 0.00, 0.00, -0.01, 0.00, 0, 0, 0, 0.00
EKF4, 31775000, 0.00, 0.00, 0.00, 0.00, 0.00, 0.00, 0.00, 0, 0, 0, 16, 9023
AHR2, 31775000, 0.00, 14.42, 90.59, 30.39, 53.94664, -1.067111
SIM, 31775000, 0.00, 14.15, 90.00, 30.38, 53.94664, -1.067111
POS, 31775000, 53.94664, -1.0671111, 30.39, 0.01291853
IMU, 31775000, 0.0001600531, 0.0003687263, 0.001128739, 2.388786, 0.001245176, -9.509044, 0, 0, 0, 1, 1
IMU2, 31775000, 0.0003681864, 0.0004873389, 0.0007203646, 2.387526, -0.0001790843, -9.493691, 0, 0, 0, 1, 1
IMT, 31775000, 0.02, 0.02, 3.201062E-06, 7.374526E-06, 2.257477E-05, 0.04777572, 2.490351E-05, -0.1901809
IMT2, 31775000, 0.02, 0.02, 7.363727E-06, 9.746777E-06, 1.440729E-05, 0.04775052, -3.581685E-06, -0.1898738
SONR, 31775000, 0, 0, 0.01640412, 0, 156, 0, 0
ATT, 31795000, 0.00, 0.01, 0.00, 14.20, 0.00, 89.92, 0.00, 0.00
PIDR, 31795000, 0, 0, 0, 0, 0, 0
PIDP, 31795000, 0, 0, 0, 0, 0, 0
PIDY, 31795000, 0, 0, 0, 0, 0, 0
PIDS, 31795000, 0, 0, 0, 0, 0, 0
EKF1, 31795000, 0.01, 14.20, 89.92, -0.006671964, -0.01734248, -0.006506059, -0.00422464, -0.01300007, -0.0130627, 0.02, 0.01, 0.01
EKF2, 31795000, 50, 1, 1, 0.00, 0.00, 161, -3, -362, 0, 0, 0
EKF3, 31795000, 0.00, -0.01, 0.00, 0.00, -0.01, 0.00, 0, 0, 0, 0.00
EKF4, 31795000, 0.00, 0.00, 0.00, 0.00, 0.00, 0.00, 0.00, 0, 0, 0, 16, 9023
AHR2, 31795000, 0.00, 14.42, 90.59, 30.39, 53.94664, -1.067111
SIM, 31795000, 0.00, 14.15, 90.00, 30.38, 53.94664, -1.067111
POS, 31795000, 53.94664, -1.0671111, 30.39, 0.0130627
IMU, 31795000, 0.001141906, 6.3513E-06, 0.0005038038, 2.402663, -0.005460734, -9.490802, 0, 0, 0, 1, 1
IMU2, 31795000, 0.0006012508, 0.0003207542, 0.0008466074, 2.387981, 0.005033646, -9.491739, 0, 0, 0, 1, 1
IMT, 31795000, 0.02, 0.02, 2.283811E-05, 1.27026E-07, 1.007608E-05, 0.04805325, -0.0001092147, -0.189816
IMT2, 31795000, 0.02, 0.02, 1.202502E-05, 6.415084E-06, 1.693215E-05, 0.04775962, 0.0001006729, -0.1898348
MAG, 31795000, 85, -162, -352, 4, 13, -14, 0, 0, 0, 1
MAG2, 31795000, 85, -162, -352, 4, 13, -14, 0, 0, 0, 1
ARSP, 31795000, 0.0220617, 0.0002441406, 0.00, 0.0002441406, 2013.475
BARO, 31795000, 0.1230309, 100959.5, 29.79, 0.06353414
SONR, 31795000, 0, 0, 0.1230309, 0, 156, 0, 0
CTUN, 31795000, 0.00, 0.01, 0.00, 14.20, 0, 0, -0.005460734
NTUN, 31795000, 89.92, 0.006551542, 0.00, 0.00, -0.01, 0.02, 0.1230309, 0
RCIN, 31795000, 1500, 1500, 1000, 1500, 1800, 1000, 1000, 1800, 0, 0, 0, 0, 0, 0
RCOU, 31795000, 1500, 1500, 1000, 1500, 1500, 1500, 1500, 1500, 1000, 1000, 1000, 1000
VIBE, 31795000, 0.006170668, 0.004903006, 0.005954731, 0, 0, 0
ATT, 31815000, 0.00, 0.01, 0.00, 14.20, 0.00, 89.92, 0.00, 0.00
PIDR, 31815000, 0, 0, 0, 0, 0, 0
PIDP, 31815000, 0, 0, 0, 0, 0, 0
PIDY, 31815000, 0, 0, 0, 0, 0, 0
PIDS, 31815000, 0, 0, 0, 0, 0, 0
EKF1, 31815000, 0.01, 14.20, 89.92, -0.006816013, -0.01742922, -0.00694381, -0.004274278, -0.01304172, -0.01379943, 0.02, 0.01, 0.01
EKF2, 31815000, 50, 1, 1, 0.00, 0.00, 161, -3, -362, 0, 0, 0
EKF3, 31815000, 0.00, -0.01, 0.00, 0.00, -0.01, 0.11, 0, 0, 0, 0.00
EKF4, 31815000, 0.00, 0.00, 0.01, 0.00, 0.00, 0.00, 0.00, 0, 0, 0, 16, 9023
AHR2, 31815000, 0.00, 14.42, 90.59, 30.5, 53.94664, -1.067111
SIM, 31815000, 0.00, 14.15, 90.00, 30.38, 53.94664, -1.067111
POS, 31815000, 53.94664, -1.0671111, 30.39, 0.01379943
IMU, 31815000, 0.000486505, -9.735359E-05, -0.0002366331, 2.39625, 0.005785466, -9.49214, 0, 0, 0, 1, 1
IMU2, 31815000, 0.0009391415, 1.578705E-05, 0.0006366571, 2.389677, 0.007599226, -9.507823, 0, 0, 0, 1, 1
IMT, 31815000, 0.02, 0.02, 9.7301E-06, -1.947072E-06, -4.732661E-06, 0.04792499, 0.0001157093, -0.1898428
IMT2, 31815000, 0.02, 0.02, 1.878283E-05, 3.15741E-07, 1.273314E-05, 0.04779353, 0.0001519845, -0.1901565
UBX3, 31815000, 0, 1.5, 2, 0.4
GPS, 31815000, 3, 338043337, 1895, 10, 1.21, 53.94664, -1.067111, 0.01, 30.38, 0.00, 208.88, 0, 1
SONR, 31815000, 0, 0, 0.1230309, 0, 156, 0, 0
ATT, 31835000, 0.00, 0.01, 0.00, 14.20, 0.00, 89.92, 0.00, 0.00
PIDR, 31835000, 0, 0, 0, 0, 0, 0
PIDP, 31835000, 0, 0, 0, 0, 0, 0
PIDY, 31835000, 0, 0, 0, 0, 0, 0
PIDS, 31835000, 0, 0, 0, 0, 0, 0
EKF1, 31835000, 0.01, 14.20, 89.92, -0.006753547, -0.01728449, -0.007451715, -0.004311937, -0.01307286, -0.01454221, 0.02, 0.01, 0.01
EKF2, 31835000, 50, 1, 1, 0.00, 0.00, 161, -3, -362, 0, 0, 0
EKF3, 31835000, 0.00, -0.01, 0.00, 0.00, -0.01, 0.11, 0, 0, 0, 0.00
EKF4, 31835000, 0.00, 0.00, 0.01, 0.00, 0.00, 0.00, 0.00, 0, 0, 0, 16, 9023
AHR2, 31835000, 0.00, 14.42, 90.59, 30.5, 53.94664, -1.067111
SIM, 31835000, 0.00, 14.15, 90.00, 30.38, 53.94664, -1.067111
POS, 31835000, 53.94664, -1.0671111, 30.39, 0.01454221
IMU, 31835000, -0.000208014, 0.0006919694, 0.0002816315, 2.404645, -0.003667334, -9.503152, 0, 0, 0, 1, 1
IMU2, 31835000, 0.0007035582, 0.00086089, 0.0007506524, 2.404975, -0.002660444, -9.498136, 0, 0, 0, 1, 1
IMT, 31835000, 0.02, 0.02, -4.160279E-06, 1.383939E-05, 5.632629E-06, 0.04809291, -7.334668E-05, -0.190063
IMT2, 31835000, 0.02, 0.02, 1.407116E-05, 1.72178E-05, 1.501305E-05, 0.04809951, -5.320888E-05, -0.1899627
SONR, 31835000, 0, 0, 0.1230309, 0, 156, 0, 0
ATT, 31855000, 0.00, 0.02, 0.00, 14.20, 0.00, 89.92, 0.00, 0.00
PIDR, 31855000, 0, 0, 0, 0, 0, 0
PIDP, 31855000, 0, 0, 0, 0, 0, 0
PIDY, 31855000, 0, 0, 0, 0, 0, 0
PIDS, 31855000, 0, 0, 0, 0, 0, 0
EKF1, 31855000, 0.02, 14.20, 89.92, -0.006879159, -0.01722463, -0.007965565, -0.00435031, -0.01310195, -0.01529484, 0.02, 0.01, 0.01
EKF2, 31855000, 50, 1, 1, 0.00, 0.00, 161, -3, -362, 0, 0, 0
EKF3, 31855000, 0.00, -0.01, 0.00, 0.00, -0.01, 0.10, 0, 0, 0, 0.00
EKF4, 31855000, 0.00, 0.00, 0.01, 0.00, 0.00, 0.00, 0.00, 0, 0, 0, 16, 9023
AHR2, 31855000, 0.00, 14.42, 90.59, 30.5, 53.94664, -1.067111
SIM, 31855000, 0.00, 14.15, 90.00, 30.38, 53.94664, -1.067111
POS, 31855000, 53.94664, -1.0671111, 30.39, 0.01529484
IMU, 31855000, 0.000818965, 0.0004401322, 0.000567176, 2.405529, 0.004907456, -9.506531, 0, 0, 0, 1, 1
IMU2, 31855000, 0.0009867225, 0.0005919423, 0.000610768, 2.395992, 0.007340166, -9.497056, 0, 0, 0, 1, 1
IMT, 31855000, 0.02, 0.02, 1.63793E-05, 8.802645E-06, 1.134352E-05, 0.04811058, 9.814911E-05, -0.1901306
IMT2, 31855000, 0.02, 0.02, 1.973445E-05, 1.183885E-05, 1.221536E-05, 0.04791984, 0.0001468033, -0.1899411
SONR, 31855000, 0, 0, 0.1230309, 0, 156, 0, 0
ATT, 31875000, 0.00, 0.02, 0.00, 14.20, 0.00, 89.92, 0.00, 0.00
PIDR, 31875000, 0, 0, 0, 0, 0, 0
PIDP, 31875000, 0, 0, 0, 0, 0, 0
PIDY, 31875000, 0, 0, 0, 0, 0, 0
PIDS, 31875000, 0, 0, 0, 0, 0, 0
EKF1, 31875000, 0.02, 14.20, 89.92, -0.006972276, -0.01726447, -0.008416859, -0.004390979, -0.0131308, -0.01605676, 0.02, 0.01, 0.01
EKF2, 31875000, 50, 1, 1, 0.00, 0.00, 161, -3, -362, 0, 0, 0
EKF3, 31875000, 0.00, -0.01, 0.00, 0.00, -0.01, 0.10, 0, 0, 0, 0.00
EKF4, 31875000, 0.00, 0.00, 0.01, 0.00, 0.00, 0.00, 0.00, 0, 0, 0, 16, 9023
AHR2, 31875000, 0.00, 14.42, 90.59, 30.5, 53.94664, -1.067111
SIM, 31875000, 0.00, 14.15, 90.00, 30.38, 53.94664, -1.067111
POS, 31875000, 53.94664, -1.0671112, 30.39, 0.01605676
IMU, 31875000, 0.001019207, 0.0007007442, 0.0002511702, 2.39995, 0.003483416, -9.506827, 0, 0, 0, 1, 1
IMU2, 31875000, 0.001142553, -1.728427E-05, 0.0005527023, 2.390313, 0.005228557, -9.492786, 0, 0, 0, 1, 1
IMT, 31875000, 0.02, 0.02, 2.038415E-05, 1.401488E-05, 5.023403E-06, 0.047999, 6.966832E-05, -0.1901365
IMT2, 31875000, 0.02, 0.02, 2.285107E-05, -3.456854E-07, 1.105405E-05, 0.04780627, 0.0001045711, -0.1898557
SONR, 31875000, 0, 0, 0.1230309, 0, 156, 0, 0
ATT, 31895000, 0.00, 0.02, 0.00, 14.20, 0.00, 89.92, 0.00, 0.00
PIDR, 31895000, 0, 0, 0, 0, 0, 0
PIDP, 31895000, 0, 0, 0, 0, 0, 0
PIDY, 31895000, 0, 0, 0, 0, 0, 0
PIDS, 31895000, 0, 0, 0, 0, 0, 0
EKF1, 31895000, 0.02, 14.20, 89.92, -0.006977359, -0.0172656, -0.008759181, -0.004432692, -0.01316005, -0.01682293, 0.02, 0.01, 0.01
EKF2, 31895000, 50, 1, 1, 0.00, 0.00, 161, -3, -362, 0, 0, 0
EKF3, 31895000, 0.00, -0.01, 0.00, 0.00, -0.01, 0.10, 0, 0, 0, 0.00
EKF4, 31895000, 0.00, 0.00, 0.01, 0.00, 0.00, 0.00, 0.00, 0, 0, 0, 16, 9023
AHR2, 31895000, 0.00, 14.42, 90.59, 30.5, 53.94664, -1.067111
SIM, 31895000, 0.00, 14.15, 90.00, 30.38, 53.94664, -1.067111
POS, 31895000, 53.94664, -1.0671112, 30.39, 0.01682293
IMU, 31895000, 0.0004417372, 0.001113566, 0.0003268591, 2.388259, 0.003787406, -9.496174, 0, 0, 0, 1, 1
IMU2, 31895000, -7.353985E-05, 0.0006479674, 0.000241576, 2.403299, -0.003783913, -9.491753, 0, 0, 0, 1, 1
IMT, 31895000, 0.02, 0.02, 8.834743E-06, 2.227132E-05, 6.537182E-06, 0.04776518, 7.574812E-05, -0.1899235
IMT2, 31895000, 0.02, 0.02, -1.470797E-06, 1.295935E-05, 4.831521E-06, 0.04806599, -7.567827E-05, -0.189835
MAG, 31895000, 85, -162, -352, 4, 13, -14, 0, 0, 0, 1
MAG2, 31895000, 85, -162, -352, 4, 13, -14, 0, 0, 0, 1
ARSP, 31895000, 0.0220617, 0.0002441406, 0.00, 0.0002441406, 2013.475
BARO, 31895000, 0.1066268, 100959.7, 29.79, 0.2552163
SONR, 31895000, 0, 0, 0.1066268, 0, 156, 0, 0
CTUN, 31895000, 0.00, 0.02, 0.00, 14.20, 0, 0, 0.003787406
NTUN, 31895000, 89.92, 0.01310308, 0.00, 0.00, -0.01, 0.02, 0.1066268, 0
RCIN, 31895000, 1500, 1500, 1000, 1500, 1800, 1000, 1000, 1800, 0, 0, 0, 0, 0, 0
RCOU, 31895000, 1500, 1500, 1000, 1500, 1500, 1500, 1500, 1500, 1000, 1000, 1000, 1000
VIBE, 31895000, 0.005669344, 0.005238954, 0.005626048, 0, 0, 0
ATT, 31915000, 0.00, 0.02, 0.00, 14.20, 0.00, 89.92, 0.00, 0.00
PIDR, 31915000, 0, 0, 0, 0, 0, 0
PIDP, 31915000, 0, 0, 0, 0, 0, 0
PIDY, 31915000, 0, 0, 0, 0, 0, 0
PIDS, 31915000, 0, 0, 0, 0, 0, 0
EKF1, 31915000, 0.02, 14.20, 89.92, -0.006948078, -0.0173537, -0.009152497, -0.004474174, -0.01319027, -0.01750224, 0.02, 0.01, 0.01
EKF2, 31915000, 50, 1, 1, 0.00, 0.00, 161, -3, -362, 0, 0, 0
EKF3, 31915000, 0.00, -0.01, 0.00, 0.00, -0.01, 0.09, 0, 0, 0, 0.00
EKF4, 31915000, 0.00, 0.00, 0.00, 0.00, 0.00, 0.00, 0.00, 0, 0, 0, 16, 9023
AHR2, 31915000, 0.00, 14.42, 90.59, 30.48, 53.94664, -1.067111
SIM, 31915000, 0.00, 14.15, 90.00, 30.38, 53.94664, -1.067111
POS, 31915000, 53.94664, -1.0671112, 30.39, 0.01750224
IMU, 31915000, 0.0005244855, -0.0001156562, 0.0007839481, 2.398096, 0.001800696, -9.492516, 0, 0, 0, 1, 1
IMU2, 31915000, 0.0009116722, 0.0009324392, 0.0007761485, 2.387951, -0.005410683, -9.508762, 0, 0, 0, 1, 1
IMT, 31915000, 0.02, 0.02, 1.048971E-05, -2.313124E-06, 1.567896E-05, 0.04796192, 3.601393E-05, -0.1898503
IMT2, 31915000, 0.02, 0.02, 1.823344E-05, 1.864878E-05, 1.552297E-05, 0.04775901, -0.0001082137, -0.1901753
SONR, 31915000, 0, 0, 0.1066268, 0, 156, 0, 0
ATT, 31935000, 0.00, 0.02, 0.00, 14.20, 0.00, 89.92, 0.00, 0.00
PIDR, 31935000, 0, 0, 0, 0, 0, 0
PIDP, 31935000, 0, 0, 0, 0, 0, 0
PIDY, 31935000, 0, 0, 0, 0, 0, 0
PIDS, 31935000, 0, 0, 0, 0, 0, 0
EKF1, 31935000, 0.02, 14.20, 89.92, -0.007003951, -0.01745596, -0.009444099, -0.004516042, -0.01322237, -0.01818454, 0.02, 0.01, 0.01
EKF2, 31935000, 50, 1, 1, 0.00, 0.00, 161, -3, -362, 0, 0, 0
EKF3, 31935000, 0.00, -0.01, 0.00, 0.00, -0.01, 0.09, 0, 0, 0, 0.00
EKF4, 31935000, 0.00, 0.00, 0.00, 0.00, 0.00, 0.00, 0.00, 0, 0, 0, 16, 9023
AHR2, 31935000, 0.00, 14.42, 90.59, 30.48, 53.94664, -1.067111
SIM, 31935000, 0.00, 14.15, 90.00, 30.38, 53.94664, -1.067111
POS, 31935000, 53.94664, -1.0671112, 30.39, 0.01818454
IMU, 31935000, 0.0006151357, 6.315828E-05, 0.0006334723, 2.386722, -0.004785343, -9.495995, 0, 0, 0, 1, 1
IMU2, 31935000, 0.0008538583, 0.0009065209, 0.00102272, 2.395504, 0.009508876, -9.495733, 0, 0, 0, 1, 1
IMT, 31935000, 0.02, 0.02, 1.230271E-05, 1.263166E-06, 1.266945E-05, 0.04773444, -9.570686E-05, -0.1899199
IMT2, 31935000, 0.02, 0.02, 1.707717E-05, 1.813042E-05, 2.04544E-05, 0.04791008, 0.0001901775, -0.1899147
SONR, 31935000, 0, 0, 0.1066268, 0, 156, 0, 0
ATT, 31955000, 0.00, 0.02, 0.00, 14.20, 0.00, 89.92, 0.00, 0.00
PIDR, 31955000, 0, 0, 0, 0, 0, 0
PIDP, 31955000, 0, 0, 0, 0, 0, 0
PIDY, 31955000, 0, 0, 0, 0, 0, 0
PIDS, 31955000, 0, 0, 0, 0, 0, 0
EKF1, 31955000, 0.02, 14.20, 89.92, -0.007096679, -0.01758143, -0.0097347, -0.004559466, -0.01325674, -0.01886878, 0.02, 0.01, 0.01
EKF2, 31955000, 50, 1, 1, 0.00, 0.00, 161, -3, -362, 0, 0, 0
EKF3, 31955000, 0.00, -0.01, 0.00, 0.00, -0.01, 0.09, 0, 0, 0, 0.00
EKF4, 31955000, 0.00, 0.00, 0.00, 0.00, 0.00, 0.00, 0.00, 0, 0, 0, 16, 9023
AHR2, 31955000, 0.00, 14.42, 90.59, 30.48, 53.94664, -1.067111
SIM, 31955000, 0.00, 14.15, 90.00, 30.38, 53.94664, -1.067111
POS, 31955000, 53.94664, -1.0671112, 30.39, 0.01886878
IMU, 31955000, 0.001057924, 0.0003928004, -4.250414E-05, 2.388417, -0.001875593, -9.498606, 0, 0, 0, 1, 1
IMU2, 31955000, -0.0001186506, 5.335061E-05, 0.0001809964, 2.391495, 0.0102775, -9.493596, 0, 0, 0, 1, 1
IMT, 31955000, 0.02, 0.02, 2.115848E-05, 7.856007E-06, -8.500827E-07, 0.04776834, -3.751187E-05, -0.1899721
IMT2, 31955000, 0.02, 0.02, -2.373012E-06, 1.067012E-06, 3.619929E-06, 0.04782989, 0.0002055499, -0.1898719
SONR, 31955000, 0, 0, 0.1066268, 0, 156, 0, 0
ATT, 31975000, 0.00, 0.02, 0.00, 14.20, 0.00, 89.92, 0.00, 0.00
PIDR, 31975000, 0, 0, 0, 0, 0, 0
PIDP, 31975000, 0, 0, 0, 0, 0, 0
PIDY, 31975000, 0, 0, 0, 0, 0, 0
PIDS, 31975000, 0, 0, 0, 0, 0, 0
EKF1, 31975000, 0.02, 14.20, 89.92, -0.006971966, -0.017712, -0.01017988, -0.004602636, -0.01329365, -0.01955644, 0.02, 0.01, 0.01
EKF2, 31975000, 50, 1, 1, 0.00, 0.00, 161, -3, -362, 0, 0, 0
EKF3, 31975000, 0.00, -0.01, 0.00, 0.00, -0.01, 0.08, 0, 0, 0, 0.00
EKF4, 31975000, 0.00, 0.00, 0.00, 0.00, 0.00, 0.00, 0.00, 0, 0, 0, 16, 9023
AHR2, 31975000, 0.00, 14.41, 90.59, 30.48, 53.94664, -1.067111
SIM, 31975000, 0.00, 14.15, 90.00, 30.38, 53.94664, -1.067111
POS, 31975000, 53.94664, -1.0671112, 30.39, 0.01955644
IMU, 31975000, -0.000158949, -0.0002269281, 0.0007799084, 2.396248, -0.005778904, -9.504554, 0, 0, 0, 1, 1
IMU2, 31975000, 0.0005703738, -6.452101E-05, 7.138646E-05, 2.386816, -0.007508463, -9.502789, 0, 0, 0, 1, 1
IMT, 31975000, 0.02, 0.02, -3.17898E-06, -4.538561E-06, 1.559817E-05, 0.04792495, -0.0001155781, -0.1900911
IMT2, 31975000, 0.02, 0.02, 1.140748E-05, -1.29042E-06, 1.427729E-06, 0.04773631, -0.0001501693, -0.1900558
SONR, 31975000, 0, 0, 0.1066268, 0, 156, 0, 0
ATT, 31995000, 0.00, 0.02, 0.00, 14.20, 0.00, 89.92, 0.00, 0.00
PIDR, 31995000, 0, 0, 0, 0, 0, 0
PIDP, 31995000, 0, 0, 0, 0, 0, 0
PIDY, 31995000, 0, 0, 0, 0, 0, 0
PIDS, 31995000, 0, 0, 0, 0, 0, 0
EKF1, 31995000, 0.02, 14.20, 89.92, -0.006996558, -0.01764894, -0.01069044, -0.004644909, -0.01333123, -0.02025021, 0.02, 0.01, 0.01
EKF2, 31995000, 50, 1, 1, 0.00, 0.00, 161, -3, -362, 0, 0, 0
EKF3, 31995000, 0.00, -0.01, 0.00, 0.00, -0.01, 0.08, 0, 0, 0, 0.00
EKF4, 31995000, 0.00, 0.00, 0.00, 0.00, 0.00, 0.00, 0.00, 0, 0, 0, 16, 9023
AHR2, 31995000, 0.00, 14.41, 90.60, 30.48, 53.94664, -1.067111
SIM, 31995000, 0.00, 14.15, 90.00, 30.38, 53.94664, -1.067111
POS, 31995000, 53.94664, -1.0671112, 30.4, 0.02025021
IMU, 31995000, 0.001092104, 0.0001489676, 0.0002553537, 2.398427, 0.005413606, -9.508788, 0, 0, 0, 1, 1
IMU2, 31995000, -0.000190862, 0.0008253993, 0.0007461584, 2.405049, -0.003787274, -9.500115, 0, 0, 0, 1, 1
IMT, 31995000, 0.02, 0.02, 2.184207E-05, 2.979353E-06, 5.107074E-06, 0.04796855, 0.0001082721, -0.1901758
IMT2, 31995000, 0.02, 0.02, -3.81724E-06, 1.650799E-05, 1.492317E-05, 0.04810097, -7.574547E-05, -0.1900023
MAG, 31995000, 85, -162, -352, 4, 13, -14, 0, 0, 0, 1
MAG2, 31995000, 85, -162, -352, 4, 13, -14, 0, 0, 0, 1
ARSP, 31995000, 0.0220617, 0.0002441406, 0.00, 0.0002441406, 2013.475
BARO, 31995000, 0.1613072, 100959, 29.79, 0.4172625
SONR, 31995000, 0, 0, 0.1613072, 0, 156, 0, 0
CURR, 31995000, 0, 1258, 0, 5000, 0, 0
TERR, 31995000, 2, 53.94664, -1.0671112, 100, 10.46987, 0.0197916, 0, 336
STAT, 31995000, 0, 0, 1, 0
CTUN, 31995000, 0.00, 0.02, 0.00, 14.20, 0, 0, 0.005413606
NTUN, 31995000, 89.92, 0.01310308, 0.00, 0.00, -0.02, 0.02, 0.1613072, 0
RCIN, 31995000, 1500, 1500, 1000, 1500, 1800, 1000, 1000, 1800, 0, 0, 0, 0, 0, 0
RCOU, 31995000, 1500, 1500, 1000, 1500, 1500, 1500, 1500, 1500, 1000, 1000, 1000, 1000
VIBE, 31995000, 0.005317526, 0.005076729, 0.005590319, 0, 0, 0
ATT, 32015000, 0.00, 0.02, 0.00, 14.20, 0.00, 89.92, 0.00, 0.00
PIDR, 32015000, 0, 0, 0, 0, 0, 0
PIDP, 32015000, 0, 0, 0, 0, 0, 0
PIDY, 32015000, 0, 0, 0, 0, 0, 0
PIDS, 32015000, 0, 0, 0, 0, 0, 0
EKF1, 32015000, 0.02, 14.20, 89.92, -0.007121892, -0.01772888, -0.01121361, -0.004688946, -0.01336859, -0.02125358, 0.02, 0.01, 0.01
EKF2, 32015000, 50, 1, 1, 0.00, 0.00, 161, -3, -362, 0, 0, 0
EKF3, 32015000, 0.00, -0.01, 0.00, 0.00, -0.01, 0.14, 0, 0, 0, 0.00
EKF4, 32015000, 0.00, 0.00, 0.01, 0.00, 0.00, 0.00, 0.00, 0, 0, 0, 16, 9023
AHR2, 32015000, 0.00, 14.41, 90.60, 30.54, 53.94664, -1.067111
SIM, 32015000, 0.00, 14.15, 90.00, 30.38, 53.94664, -1.067111
POS, 32015000, 53.94664, -1.0671112, 30.4, 0.02125358
IMU, 32015000, 0.0007569402, -0.0001864392, 0.0003133492, 2.39451, 0.008513886, -9.498304, 0, 0, 0, 1, 1
IMU2, 32015000, 0.0004063099, 0.0004514151, 0.0005446507, 2.389823, 0.003070917, -9.493926, 0, 0, 0, 1, 1
IMT, 32015000, 0.02, 0.02, 1.51388E-05, -3.728784E-06, 6.266985E-06, 0.04789019, 0.0001702777, -0.1899661
IMT2, 32015000, 0.02, 0.02, 8.126198E-06, 9.028301E-06, 1.089301E-05, 0.04779646, 6.141833E-05, -0.1898785
UBX3, 32015000, 0, 1.5, 2, 0.4
GPS, 32015000, 3, 338043540, 1895, 10, 1.21, 53.94664, -1.067111, 0.02, 30.38, 0.00, 230.34, 0, 1
SONR, 32015000, 0, 0, 0.1613072, 0, 156, 0, 0
ATT, 32035000, 0.00, 0.02, 0.00, 14.20, 0.00, 89.92, 0.00, 0.00
PIDR, 32035000, 0, 0, 0, 0, 0, 0
PIDP, 32035000, 0, 0, 0, 0, 0, 0
PIDY, 32035000, 0, 0, 0, 0, 0, 0
PIDS, 32035000, 0, 0, 0, 0, 0, 0
EKF1, 32035000, 0.02, 14.20, 89.92, -0.007164959, -0.01771795, -0.01181634, -0.004724032, -0.01339632, -0.02225955, 0.02, 0.01, 0.01
EKF2, 32035000, 50, 1, 1, 0.00, 0.00, 161, -3, -362, 0, 0, 0
EKF3, 32035000, 0.00, -0.01, 0.00, 0.00, -0.01, 0.14, 0, 0, 0, 0.00
EKF4, 32035000, 0.00, 0.00, 0.01, 0.00, 0.00, 0.00, 0.00, 0, 0, 0, 16, 9023
AHR2, 32035000, 0.00, 14.41, 90.60, 30.54, 53.94664, -1.067111
SIM, 32035000, 0.00, 14.15, 90.00, 30.38, 53.94664, -1.067111
POS, 32035000, 53.94664, -1.0671112, 30.4, 0.02225955
IMU, 32035000, 0.001110805, 0.0005489762, 0.0009876412, 2.403931, -0.003050233, -9.494689, 0, 0, 0, 1, 1
IMU2, 32035000, 0.0005141484, 0.0007638402, 0.0003433389, 2.390774, 0.006891266, -9.503748, 0, 0, 0, 1, 1
IMT, 32035000, 0.02, 0.02, 2.221609E-05, 1.097952E-05, 1.975282E-05, 0.04807862, -6.100466E-05, -0.1898938
IMT2, 32035000, 0.02, 0.02, 1.028297E-05, 1.52768E-05, 6.866779E-06, 0.04781548, 0.0001378253, -0.190075
SONR, 32035000, 0, 0, 0.1613072, 0, 156, 0, 0
ATT, 32055000, 0.00, 0.02, 0.00, 14.20, 0.00, 89.92, 0.00, 0.00
PIDR, 32055000, 0, 0, 0, 0, 0, 0
PIDP, 32055000, 0, 0, 0, 0, 0, 0
PIDY, 32055000, 0, 0, 0, 0, 0, 0
PIDS, 32055000, 0, 0, 0, 0, 0, 0
EKF1, 32055000, 0.02, 14.20, 89.92, -0.007168821, -0.01786252, -0.01245407, -0.004759671, -0.01342537, -0.02327464, 0.02, 0.01, 0.01
EKF2, 32055000, 50, 1, 1, 0.00, 0.00, 161, -3, -362, 0, 0, 0
EKF3, 32055000, 0.00, -0.01, 0.00, 0.00, -0.01, 0.14, 0, 0, 0, 0.00
EKF4, 32055000, 0.00, 0.00, 0.01, 0.00, 0.00, 0.00, 0.00, 0, 0, 0, 16, 9023
AHR2, 32055000, 0.00, 14.41, 90.60, 30.54, 53.94664, -1.067111
SIM, 32055000, 0.00, 14.15, 90.00, 30.38, 53.94664, -1.067111
POS, 32055000, 53.94664, -1.0671112, 30.4, 0.02327464
IMU, 32055000, 0.0005604558, 1.857232E-05, 0.00084803, 2.387807, 0.006949847, -9.496757, 0, 0, 0, 1, 1
IMU2, 32055000, 0.000747618, 0.0009225251, 0.0001323752, 2.392719, -0.007168783, -9.508691, 0, 0, 0, 1, 1
IMT, 32055000, 0.02, 0.02, 1.120912E-05, 3.714464E-07, 1.69606E-05, 0.04775614, 0.0001389969, -0.1899351
IMT2, 32055000, 0.02, 0.02, 1.495236E-05, 1.84505E-05, 2.647504E-06, 0.04785438, -0.0001433757, -0.1901738
SONR, 32055000, 0, 0, 0.1613072, 0, 156, 0, 0
ATT, 32075000, 0.00, 0.02, 0.00, 14.20, 0.00, 89.92, 0.00, 0.00
PIDR, 32075000, 0, 0, 0, 0, 0, 0
PIDP, 32075000, 0, 0, 0, 0, 0, 0
PIDY, 32075000, 0, 0, 0, 0, 0, 0
PIDS, 32075000, 0, 0, 0, 0, 0, 0
EKF1, 32075000, 0.02, 14.20, 89.92, -0.007161027, -0.01777372, -0.01312136, -0.004795335, -0.01345496, -0.02429946, 0.02, 0.01, 0.01
EKF2, 32075000, 50, 1, 1, 0.00, 0.00, 161, -3, -362, 0, 0, 0
EKF3, 32075000, 0.00, -0.01, 0.00, 0.00, -0.01, 0.14, 0, 0, 0, 0.00
EKF4, 32075000, 0.00, 0.00, 0.01, 0.00, 0.00, 0.00, 0.00, 0, 0, 0, 16, 9023
AHR2, 32075000, 0.00, 14.41, 90.60, 30.54, 53.94664, -1.067111
SIM, 32075000, 0.00, 14.15, 90.00, 30.38, 53.94664, -1.067111
POS, 32075000, 53.94664, -1.0671112, 30.4, 0.02429946
IMU, 32075000, -8.565269E-05, 0.0004151074, 0.0007686911, 2.405736, -0.008504242, -9.501133, 0, 0, 0, 1, 1
IMU2, 32075000, 0.0004824624, 0.001122438, 0.0006884708, 2.398282, 0.007194317, -9.501238, 0, 0, 0, 1, 1
IMT, 32075000, 0.02, 0.02, -1.713054E-06, 8.302148E-06, 1.537382E-05, 0.04811471, -0.0001700848, -0.1900227
IMT2, 32075000, 0.02, 0.02, 9.649249E-06, 2.244877E-05, 1.376942E-05, 0.04796563, 0.0001438863, -0.1900247
SONR, 32075000, 0, 0, 0.1613072, 0, 156, 0, 0
ATT, 32095000, 0.00, 0.02, 0.00, 14.20, 0.00, 89.92, 0.00, 0.00
PIDR, 32095000, 0, 0, 0, 0, 0, 0
PIDP, 32095000, 0, 0, 0, 0, 0, 0
PIDY, 32095000, 0, 0, 0, 0, 0, 0
PIDS, 32095000, 0, 0, 0, 0, 0, 0
EKF1, 32095000, 0.02, 14.20, 89.92, -0.007190932, -0.01785849, -0.01375717, -0.004831297, -0.01348449, -0.02533227, 0.02, 0.01, 0.01
EKF2, 32095000, 50, 1, 1, 0.00, 0.00, 161, -3, -362, 0, 0, 0
EKF3, 32095000, 0.00, -0.01, 0.00, 0.00, -0.01, 0.13, 0, 0, 0, 0.00
EKF4, 32095000, 0.00, 0.00, 0.01, 0.00, 0.00, 0.00, 0.00, 0, 0, 0, 16, 9023
AHR2, 32095000, 0.00, 14.41, 90.60, 30.54, 53.94664, -1.067111
SIM, 32095000, 0.00, 14.15, 90.00, 30.38, 53.94664, -1.067111
POS, 32095000, 53.94664, -1.0671112, 30.4, 0.02533227
IMU, 32095000, -8.80358E-05, 0.0007801013, 0.00103103, 2.39471, 0.003613987, -9.501026, 0, 0, 0, 1, 1
IMU2, 32095000, 0.0008328913, 0.000312797, 0.001071779, 2.391794, -0.001239543, -9.502499, 0, 0, 0, 1, 1
IMT, 32095000, 0.02, 0.02, -1.760716E-06, 1.560203E-05, 2.06206E-05, 0.04789419, 7.227974E-05, -0.1900205
IMT2, 32095000, 0.02, 0.02, 1.665783E-05, 6.25594E-06, 2.143558E-05, 0.04783588, -2.479086E-05, -0.19005
MAG, 32095000, 85, -162, -352, 4, 13, -14, 0, 0, 0, 1
MAG2, 32095000, 85, -162, -352, 4, 13, -14, 0, 0, 0, 1
ARSP, 32095000, 0.0220617, 0.0002441406, 0.00, 0.0002441406, 2013.475
BARO, 32095000, 0.1503711, 100959.2, 29.79, 0.4183223
SONR, 32095000, 0, 0, 0.1503711, 0, 156, 0, 0
CTUN, 32095000, 0.00, 0.02, 0.00, 14.20, 0, 0, 0.003613987
NTUN, 32095000, 89.92, 0.01310308, 0.00, 0.00, -0.02, 0.02, 0.1503711, 0
RCIN, 32095000, 1500, 1500, 1000, 1500, 1800, 1000, 1000, 1800, 0, 0, 0, 0, 0, 0
RCOU, 32095000, 1500, 1500, 1000, 1500, 1500, 1500, 1500, 1500, 1000, 1000, 1000, 1000
VIBE, 32095000, 0.005431755, 0.004892453, 0.005226279, 0, 0, 0
ATT, 32115000, 0.00, 0.02, 0.00, 14.20, 0.00, 89.92, 0.00, 0.00
PIDR, 32115000, 0, 0, 0, 0, 0, 0
PIDP, 32115000, 0, 0, 0, 0, 0, 0
PIDY, 32115000, 0, 0, 0, 0, 0, 0
PIDS, 32115000, 0, 0, 0, 0, 0, 0
EKF1, 32115000, 0.02, 14.20, 89.92, -0.007228653, -0.01788386, -0.01431893, -0.004868019, -0.01351515, -0.02631167, 0.02, 0.01, 0.01
EKF2, 32115000, 50, 1, 1, 0.00, 0.00, 161, -3, -362, 0, 0, 0
EKF3, 32115000, 0.00, -0.01, 0.00, 0.00, -0.01, 0.12, 0, 0, 0, 0.00
EKF4, 32115000, 0.00, 0.00, 0.01, 0.00, 0.00, 0.00, 0.00, 0, 0, 0, 16, 9023
AHR2, 32115000, 0.00, 14.41, 90.60, 30.53, 53.94664, -1.067111
SIM, 32115000, 0.00, 14.15, 90.00, 30.38, 53.94664, -1.067111
POS, 32115000, 53.94664, -1.0671112, 30.4, 0.02631167
IMU, 32115000, 0.001135651, 0.0006337836, 0.0006636433, 2.389774, -0.004400083, -9.492121, 0, 0, 0, 1, 1
IMU2, 32115000, 1.74421E-05, 0.0005445924, 0.001112579, 2.401869, 0.007443816, -9.50697, 0, 0, 0, 1, 1
IMT, 32115000, 0.02, 0.02, 2.271303E-05, 1.267567E-05, 1.327287E-05, 0.04779548, -8.800165E-05, -0.1898424
IMT2, 32115000, 0.02, 0.02, 3.48842E-07, 1.089185E-05, 2.225158E-05, 0.04803738, 0.0001488763, -0.1901394
SONR, 32115000, 0, 0, 0.1503711, 0, 156, 0, 0
ATT, 32135000, 0.00, 0.02, 0.00, 14.20, 0.00, 89.92, 0.00, 0.00
PIDR, 32135000, 0, 0, 0, 0, 0, 0
PIDP, 32135000, 0, 0, 0, 0, 0, 0
PIDY, 32135000, 0, 0, 0, 0, 0, 0
PIDS, 32135000, 0, 0, 0, 0, 0, 0
EKF1, 32135000, 0.02, 14.20, 89.92, -0.007260493, -0.01795512, -0.01486379, -0.004905526, -0.01354677, -0.02729696, 0.02, 0.01, 0.01
EKF2, 32135000, 50, 1, 1, 0.00, 0.00, 161, -3, -362, 0, 0, 0
EKF3, 32135000, 0.00, -0.01, 0.00, 0.00, -0.01, 0.12, 0, 0, 0, 0.00
EKF4, 32135000, 0.00, 0.00, 0.01, 0.00, 0.00, 0.00, 0.00, 0, 0, 0, 16, 9023
AHR2, 32135000, 0.00, 14.42, 90.60, 30.53, 53.94664, -1.067111
SIM, 32135000, 0.00, 14.15, 90.00, 30.38, 53.94664, -1.067111
POS, 32135000, 53.94664, -1.0671112, 30.4, 0.02729696
IMU, 32135000, 0.0007198879, 0.0009321232, 8.007765E-05, 2.398116, 0.008222756, -9.492077, 0, 0, 0, 1, 1
IMU2, 32135000, 0.0009640316, 0.001076636, 0.0001878706, 2.388934, -0.005926203, -9.506472, 0, 0, 0, 1, 1
IMT, 32135000, 0.02, 0.02, 1.439776E-05, 1.864246E-05, 1.601553E-06, 0.04796232, 0.0001644551, -0.1898415
IMT2, 32135000, 0.02, 0.02, 1.928063E-05, 2.153273E-05, 3.757412E-06, 0.04777867, -0.0001185241, -0.1901294
SONR, 32135000, 0, 0, 0.1503711, 0, 156, 0, 0
ATT, 32155000, 0.00, 0.02, 0.00, 14.20, 0.00, 89.92, 0.00, 0.00
PIDR, 32155000, 0, 0, 0, 0, 0, 0
PIDP, 32155000, 0, 0, 0, 0, 0, 0
PIDY, 32155000, 0, 0, 0, 0, 0, 0
PIDS, 32155000, 0, 0, 0, 0, 0, 0
EKF1, 32155000, 0.02, 14.20, 89.92, -0.007275596, -0.01813559, -0.01553764, -0.004943579, -0.0135809, -0.02828921, 0.02, 0.01, 0.01
EKF2, 32155000, 50, 1, 1, 0.00, 0.00, 161, -3, -362, 0, 0, 0
EKF3, 32155000, 0.00, -0.01, 0.00, 0.00, -0.01, 0.12, 0, 0, 0, 0.00
EKF4, 32155000, 0.00, 0.00, 0.01, 0.00, 0.00, 0.00, 0.00, 0, 0, 0, 16, 9023
AHR2, 32155000, 0.00, 14.41, 90.60, 30.53, 53.94664, -1.067111
SIM, 32155000, 0.00, 14.15, 90.00, 30.38, 53.94664, -1.067111
POS, 32155000, 53.94664, -1.0671112, 30.4, 0.02828921
IMU, 32155000, 0.001154245, 0.0001060616, 0.00103125, 2.392851, 3.38761E-05, -9.505035, 0, 0, 0, 1, 1
IMU2, 32155000, 0.0006831196, 0.0002712186, 0.0007974348, 2.386743, 0.0003138161, -9.508762, 0, 0, 0, 1, 1
IMT, 32155000, 0.02, 0.02, 2.308489E-05, 2.121232E-06, 2.0625E-05, 0.04785701, 6.77522E-07, -0.1901007
IMT2, 32155000, 0.02, 0.02, 1.366239E-05, 5.424372E-06, 1.59487E-05, 0.04773486, 6.276321E-06, -0.1901753
SONR, 32155000, 0, 0, 0.1503711, 0, 156, 0, 0
ATT, 32175000, 0.00, 0.02, 0.00, 14.20, 0.00, 89.92, 0.00, 0.00
PIDR, 32175000, 0, 0, 0, 0, 0, 0
PIDP, 32175000, 0, 0, 0, 0, 0, 0
PIDY, 32175000, 0, 0, 0, 0, 0, 0
PIDS, 32175000, 0, 0, 0, 0, 0, 0
EKF1, 32175000, 0.02, 14.20, 89.92, -0.007233098, -0.01813722, -0.01599512, -0.004981428, -0.0136168, -0.02928748, 0.02, 0.01, 0.01
EKF2, 32175000, 50, 1, 1, 0.00, 0.00, 161, -3, -362, 0, 0, 0
EKF3, 32175000, 0.00, -0.01, 0.00, 0.00, -0.01, 0.12, 0, 0, 0, 0.00
EKF4, 32175000, 0.00, 0.00, 0.01, 0.00, 0.00, 0.00, 0.00, 0, 0, 0, 16, 9023
AHR2, 32175000, 0.00, 14.42, 90.60, 30.53, 53.94664, -1.067111
SIM, 32175000, 0.00, 14.15, 90.00, 30.38, 53.94664, -1.067111
POS, 32175000, 53.94664, -1.0671112, 30.4, 0.02928748
IMU, 32175000, 0.001038378, 0.00108398, 0.0007734452, 2.398528, -0.002833404, -9.493409, 0, 0, 0, 1, 1
IMU2, 32175000, 0.0008082252, 0.000792223, -7.798706E-05, 2.393345, -0.002745274, -9.495031, 0, 0, 0, 1, 1
IMT, 32175000, 0.02, 0.02, 2.076757E-05, 2.16796E-05, 1.54689E-05, 0.04797056, -5.666807E-05, -0.1898682
IMT2, 32175000, 0.02, 0.02, 1.61645E-05, 1.584446E-05, -1.559741E-06, 0.0478669, -5.490548E-05, -0.1899006
SONR, 32175000, 0, 0, 0.1503711, 0, 156, 0, 0
ATT, 32195000, 0.00, 0.02, 0.00, 14.20, 0.00, 89.92, 0.00, 0.00
PIDR, 32195000, 0, 0, 0, 0, 0, 0
PIDP, 32195000, 0, 0, 0, 0, 0, 0
PIDY, 32195000, 0, 0, 0, 0, 0, 0
PIDS, 32195000, 0, 0, 0, 0, 0, 0
EKF1, 32195000, 0.02, 14.20, 89.92, -0.00742247, -0.01803427, -0.01662835, -0.005020794, -0.01365169, -0.03029167, 0.02, 0.01, 0.01
EKF2, 32195000, 50, 1, 1, 0.00, 0.00, 161, -3, -362, 0, 0, 0
EKF3, 32195000, 0.00, -0.01, 0.00, 0.00, -0.01, 0.12, 0, 0, 0, 0.00
EKF4, 32195000, 0.00, 0.00, 0.01, 0.00, 0.00, 0.00, 0.00, 0, 0, 0, 16, 9023
AHR2, 32195000, 0.00, 14.42, 90.60, 30.53, 53.94664, -1.067111
SIM, 32195000, 0.00, 14.15, 90.00, 30.38, 53.94664, -1.067111
POS, 32195000, 53.94664, -1.0671112, 30.41, 0.03029167
IMU, 32195000, 0.000927386, 0.0001739992, 0.001009654, 2.402456, 0.007472526, -9.502892, 0, 0, 0, 1, 1
IMU2, 32195000, 0.0001070072, 0.001007395, -0.0001634859, 2.403951, 0.01009239, -9.500073, 0, 0, 0, 1, 1
IMT, 32195000, 0.02, 0.02, 1.854772E-05, 3.479984E-06, 2.019309E-05, 0.04804911, 0.0001494505, -0.1900578
IMT2, 32195000, 0.02, 0.02, 2.140145E-06, 2.014791E-05, -3.269718E-06, 0.04807902, 0.0002018477, -0.1900015
MAG, 32195000, 85, -162, -352, 4, 13, -14, 0, 0, 0, 1
MAG2, 32195000, 85, -162, -352, 4, 13, -14, 0, 0, 0, 1
ARSP, 32195000, 0.0220617, 0.0002441406, 0.00, 0.0002441406, 2013.475
BARO, 32195000, 0.131233, 100959.4, 29.79, 0.2756296
SONR, 32195000, 0, 0, 0.131233, 0, 156, 0, 0
CTUN, 32195000, 0.00, 0.02, 0.00, 14.20, 0, 0, 0.007472526
NTUN, 32195000, 89.92, 0.01310308, 0.00, 0.00, -0.03, 0.02, 0.131233, 0
RCIN, 32195000, 1500, 1500, 1000, 1500, 1800, 1000, 1000, 1800, 0, 0, 0, 0, 0, 0
RCOU, 32195000, 1500, 1500, 1000, 1500, 1500, 1500, 1500, 1500, 1000, 1000, 1000, 1000
VIBE, 32195000, 0.005476638, 0.005171591, 0.005234861, 0, 0, 0
ATT, 32215000, 0.00, 0.02, 0.00, 14.20, 0.00, 89.92, 0.00, 0.00
PIDR, 32215000, 0, 0, 0, 0, 0, 0
PIDP, 32215000, 0, 0, 0, 0, 0, 0
PIDY, 32215000, 0, 0, 0, 0, 0, 0
PIDS, 32215000, 0, 0, 0, 0, 0, 0
EKF1, 32215000, 0.02, 14.20, 89.92, -0.007291359, -0.0182434, -0.01714626, -0.00506075, -0.01368772, -0.03119642, 0.02, 0.01, 0.01
EKF2, 32215000, 50, 1, 1, 0.00, 0.00, 161, -3, -362, 0, 0, 0
EKF3, 32215000, 0.00, -0.01, 0.00, 0.00, -0.01, 0.10, 0, 0, 0, 0.00
EKF4, 32215000, 0.00, 0.00, 0.01, 0.00, 0.00, 0.00, 0.00, 0, 0, 0, 16, 9023
AHR2, 32215000, 0.00, 14.42, 90.60, 30.51, 53.94664, -1.067111
SIM, 32215000, 0.00, 14.15, 90.00, 30.38, 53.94664, -1.067111
POS, 32215000, 53.94664, -1.0671112, 30.41, 0.03119642
IMU, 32215000, 7.395295E-05, 0.001155989, 0.001051205, 2.387432, -0.008956313, -9.508203, 0, 0, 0, 1, 1
IMU2, 32215000, 0.0005095404, 0.00104633, 0.0006422864, 2.388161, -0.005572443, -9.498716, 0, 0, 0, 1, 1
IMT, 32215000, 0.02, 0.02, 1.479059E-06, 2.311978E-05, 2.10241E-05, 0.04774864, -0.0001791263, -0.190164
IMT2, 32215000, 0.02, 0.02, 1.019081E-05, 2.092661E-05, 1.284573E-05, 0.04776322, -0.0001114489, -0.1899743
UBX3, 32215000, 0, 1.5, 2, 0.4
GPS, 32215000, 3, 338043752, 1895, 10, 1.21, 53.94664, -1.067111, 0.03, 30.38, 0.00, 245.69, 0, 1
SONR, 32215000, 0, 0, 0.131233, 0, 156, 0, 0
ATT, 32235000, 0.00, 0.02, 0.00, 14.20, 0.00, 89.92, 0.00, 0.00
PIDR, 32235000, 0, 0, 0, 0, 0, 0
PIDP, 32235000, 0, 0, 0, 0, 0, 0
PIDY, 32235000, 0, 0, 0, 0, 0, 0
PIDS, 32235000, 0, 0, 0, 0, 0, 0
EKF1, 32235000, 0.02, 14.20, 89.92, -0.007356799, -0.01821226, -0.01755586, -0.005090928, -0.01371874, -0.03209686, 0.02, 0.01, 0.01
EKF2, 32235000, 50, 1, 1, 0.00, 0.00, 161, -3, -362, 0, 0, 0
EKF3, 32235000, 0.00, -0.01, -0.01, 0.00, -0.01, 0.10, 0, 0, 0, 0.00
EKF4, 32235000, 0.00, 0.00, 0.01, 0.00, 0.00, 0.00, 0.00, 0, 0, 0, 16, 9023
AHR2, 32235000, 0.00, 14.42, 90.60, 30.51, 53.94664, -1.067111
